[
  { "id": "L1-new-el-marg", "nameEn": "New El-Marg", "nameAr": "المرج الجديدة", "lat": 30.1520, "lng": 31.3381, "lineIds": ["L1"], "isTransfer": false },
  { "id": "L1-el-marg", "nameEn": "El-Marg", "nameAr": "المرج", "lat": 30.1413, "lng": 31.3360, "lineIds": ["L1"], "isTransfer": false },
  { "id": "L1-ezbet-el-nakhl", "nameEn": "Ezbet El-Nakhl", "nameAr": "عزبة النخل", "lat": 30.1310, "lng": 31.3243, "lineIds": ["L1"], "isTransfer": false },
  { "id": "L1-ain-shams", "nameEn": "Ain Shams", "nameAr": "عين شمس", "lat": 30.1310, "lng": 31.3180, "lineIds": ["L1"], "isTransfer": false },
  { "id": "L1-el-matareyya", "nameEn": "El-Matareyya", "nameAr": "المطرية", "lat": 30.1212, "lng": 31.3133, "lineIds": ["L1"], "isTransfer": false },
  { "id": "L1-helmeyet-el-zaytoun", "nameEn": "Helmeyet El-Zaytoun", "nameAr": "حلمية الزيتون", "lat": 30.1131, "lng": 31.3050, "lineIds": ["L1"], "isTransfer": false },
  { "id": "L1-hadayek-el-zaytoun", "nameEn": "Hadayek El-Zaytoun", "nameAr": "حدائق الزيتون", "lat": 30.1060, "lng": 31.3027, "lineIds": ["L1"], "isTransfer": false },
  { "id": "L1-saray-el-qobba", "nameEn": "Saray El-Qobba", "nameAr": "سراي القبة", "lat": 30.0985, "lng": 31.2985, "lineIds": ["L1"], "isTransfer": false },
  { "id": "L1-hammamat-el-qobba", "nameEn": "Hammamat El-Qobba", "nameAr": "حمامات القبة", "lat": 30.0910, "lng": 31.2930, "lineIds": ["L1"], "isTransfer": false },
  { "id": "L1-kobri-el-qobba", "nameEn": "Kobri El-Qobba", "nameAr": "كوبري القبة", "lat": 30.0868, "lng": 31.2890, "lineIds": ["L1"], "isTransfer": false },
  { "id": "L1-manshiet-el-sadr", "nameEn": "Manshiet El-Sadr", "nameAr": "منشية الصدر", "lat": 30.0820, "lng": 31.2875, "lineIds": ["L1"], "isTransfer": false },
  { "id": "L1-el-demerdash", "nameEn": "El-Demerdash", "nameAr": "الدمرداش", "lat": 30.0770, "lng": 31.2775, "lineIds": ["L1"], "isTransfer": false },
  { "id": "L1-ghamra", "nameEn": "Ghamra", "nameAr": "غمرة", "lat": 30.0715, "lng": 31.2650, "lineIds": ["L1"], "isTransfer": false },
  { "id": "el-shohadaa", "nameEn": "El-Shohadaa", "nameAr": "الشهداء", "lat": 30.0614, "lng": 31.2465, "lineIds": ["L1", "L2"], "isTransfer": true },
  { "id": "L1-orabi", "nameEn": "Orabi", "nameAr": "عرابي", "lat": 30.0570, "lng": 31.2425, "lineIds": ["L1"], "isTransfer": false },
  { "id": "nasser", "nameEn": "Nasser", "nameAr": "ناصر", "lat": 30.0535, "lng": 31.2385, "lineIds": ["L1", "L2", "L3"], "isTransfer": true },
  { "id": "sadat", "nameEn": "Sadat", "nameAr": "السادات", "lat": 30.0444, "lng": 31.2346, "lineIds": ["L1", "L2"], "isTransfer": true },
  { "id": "L1-saad-zaghloul", "nameEn": "Saad Zaghloul", "nameAr": "سعد زغلول", "lat": 30.0370, "lng": 31.2380, "lineIds": ["L1"], "isTransfer": false },
  { "id": "L1-el-sayeda-zeinab", "nameEn": "El-Sayeda Zeinab", "nameAr": "السيدة زينب", "lat": 30.0290, "lng": 31.2355, "lineIds": ["L1"], "isTransfer": false },
  { "id": "L1-el-malek-el-saleh", "nameEn": "El-Malek El-Saleh", "nameAr": "الملك الصالح", "lat": 30.0195, "lng": 31.2310, "lineIds": ["L1"], "isTransfer": false },
  { "id": "L1-mar-girgis", "nameEn": "Mar Girgis", "nameAr": "مار جرجس", "lat": 30.0060, "lng": 31.2295, "lineIds": ["L1"], "isTransfer": false },
  { "id": "L1-el-zahraa", "nameEn": "El-Zahraa", "nameAr": "الزهراء", "lat": 29.9955, "lng": 31.2310, "lineIds": ["L1"], "isTransfer": false },
  { "id": "L1-dar-el-salam", "nameEn": "Dar El-Salam", "nameAr": "دار السلام", "lat": 29.9830, "lng": 31.2420, "lineIds": ["L1"], "isTransfer": false },
  { "id": "L1-hadayek-el-maadi", "nameEn": "Hadayek El-Maadi", "nameAr": "حدائق المعادي", "lat": 29.9700, "lng": 31.2500, "lineIds": ["L1"], "isTransfer": false },
  { "id": "L1-maadi", "nameEn": "Maadi", "nameAr": "المعادي", "lat": 29.9600, "lng": 31.2577, "lineIds": ["L1"], "isTransfer": false },
  { "id": "L1-sakanat-el-maadi", "nameEn": "Sakanat El-Maadi", "nameAr": "ثكنات المعادي", "lat": 29.9530, "lng": 31.2620, "lineIds": ["L1"], "isTransfer": false },
  { "id": "L1-tora-el-asmant", "nameEn": "Tora El-Asmant", "nameAr": "طرة الأسمنت", "lat": 29.9420, "lng": 31.2680, "lineIds": ["L1"], "isTransfer": false },
  { "id": "L1-kozzika", "nameEn": "Kozzika", "nameAr": "كوتسيكا", "lat": 29.9350, "lng": 31.2720, "lineIds": ["L1"], "isTransfer": false },
  { "id": "L1-tora-el-balad", "nameEn": "Tora El-Balad", "nameAr": "طرة البلد", "lat": 29.9265, "lng": 31.2740, "lineIds": ["L1"], "isTransfer": false },
  { "id": "L1-thakanat-el-maadi", "nameEn": "Thakanat El-Maadi", "nameAr": "ثكنات المعادي", "lat": 29.9185, "lng": 31.2760, "lineIds": ["L1"], "isTransfer": false },
  { "id": "L1-el-maasara", "nameEn": "El-Maasara", "nameAr": "المعصرة", "lat": 29.9060, "lng": 31.2800, "lineIds": ["L1"], "isTransfer": false },
  { "id": "L1-hadayek-helwan", "nameEn": "Hadayek Helwan", "nameAr": "حدائق حلوان", "lat": 29.8970, "lng": 31.2870, "lineIds": ["L1"], "isTransfer": false },
  { "id": "L1-wadi-hof", "nameEn": "Wadi Hof", "nameAr": "وادي حوف", "lat": 29.8790, "lng": 31.3060, "lineIds": ["L1"], "isTransfer": false },
  { "id": "L1-helwan-university", "nameEn": "Helwan University", "nameAr": "جامعة حلوان", "lat": 29.8680, "lng": 31.3200, "lineIds": ["L1"], "isTransfer": false },
  { "id": "L1-helwan", "nameEn": "Helwan", "nameAr": "حلوان", "lat": 29.8489, "lng": 31.3340, "lineIds": ["L1"], "isTransfer": false },

  { "id": "L2-shobra-el-kheima", "nameEn": "Shobra El-Kheima", "nameAr": "شبرا الخيمة", "lat": 30.1224, "lng": 31.2444, "lineIds": ["L2"], "isTransfer": false },
  { "id": "L2-koliet-el-zeraa", "nameEn": "Koliet El-Zeraa", "nameAr": "كلية الزراعة", "lat": 30.1138, "lng": 31.2488, "lineIds": ["L2"], "isTransfer": false },
  { "id": "L2-el-mezallat", "nameEn": "El-Mezallat", "nameAr": "المظلات", "lat": 30.1048, "lng": 31.2460, "lineIds": ["L2"], "isTransfer": false },
  { "id": "L2-khalafawy", "nameEn": "Khalafawy", "nameAr": "الخلفاوي", "lat": 30.0980, "lng": 31.2455, "lineIds": ["L2"], "isTransfer": false },
  { "id": "L2-st-teresa", "nameEn": "St. Teresa", "nameAr": "سانت تريزا", "lat": 30.0880, "lng": 31.2453, "lineIds": ["L2"], "isTransfer": false },
  { "id": "L2-rod-el-farag", "nameEn": "Rod El-Farag", "nameAr": "روض الفرج", "lat": 30.0800, "lng": 31.2460, "lineIds": ["L2"], "isTransfer": false },
  { "id": "L2-massarra", "nameEn": "Massarra", "nameAr": "المسرة", "lat": 30.0710, "lng": 31.2460, "lineIds": ["L2"], "isTransfer": false },
  { "id": "attaba", "nameEn": "Attaba", "nameAr": "العتبة", "lat": 30.0524, "lng": 31.2467, "lineIds": ["L2", "L3"], "isTransfer": true },
  { "id": "L2-mohamed-naguib", "nameEn": "Mohamed Naguib", "nameAr": "محمد نجيب", "lat": 30.0455, "lng": 31.2440, "lineIds": ["L2"], "isTransfer": false },
  { "id": "L2-opera", "nameEn": "Opera", "nameAr": "الأوبرا", "lat": 30.0420, "lng": 31.2250, "lineIds": ["L2"], "isTransfer": false },
  { "id": "L2-dokki", "nameEn": "Dokki", "nameAr": "الدقي", "lat": 30.0380, "lng": 31.2120, "lineIds": ["L2"], "isTransfer": false },
  { "id": "L2-el-bohoth", "nameEn": "El-Bohoth", "nameAr": "البحوث", "lat": 30.0355, "lng": 31.2005, "lineIds": ["L2"], "isTransfer": false },
  { "id": "L2-cairo-university", "nameEn": "Cairo University", "nameAr": "جامعة القاهرة", "lat": 30.0260, "lng": 31.2010, "lineIds": ["L2"], "isTransfer": false },
  { "id": "L2-faisal", "nameEn": "Faisal", "nameAr": "فيصل", "lat": 30.0170, "lng": 31.2040, "lineIds": ["L2"], "isTransfer": false },
  { "id": "L2-giza", "nameEn": "Giza", "nameAr": "الجيزة", "lat": 30.0100, "lng": 31.2070, "lineIds": ["L2"], "isTransfer": false },
  { "id": "L2-omm-el-masryeen", "nameEn": "Omm El-Masryeen", "nameAr": "أم المصريين", "lat": 30.0053, "lng": 31.2078, "lineIds": ["L2"], "isTransfer": false },
  { "id": "L2-sakiat-mekki", "nameEn": "Sakiat Mekki", "nameAr": "ساقية مكي", "lat": 29.9960, "lng": 31.2085, "lineIds": ["L2"], "isTransfer": false },
  { "id": "L2-el-mounib", "nameEn": "El Mounib", "nameAr": "المنيب", "lat": 29.9812, "lng": 31.2117, "lineIds": ["L2"], "isTransfer": false },

  { "id": "L3-adly-mansour", "nameEn": "Adly Mansour", "nameAr": "عدلي منصور", "lat": 30.1470, "lng": 31.4210, "lineIds": ["L3"], "isTransfer": false },
  { "id": "L3-el-haykestep", "nameEn": "El Haykestep", "nameAr": "الهايكستب", "lat": 30.1440, "lng": 31.4040, "lineIds": ["L3"], "isTransfer": false },
  { "id": "L3-omar-ibn-el-khattab", "nameEn": "Omar Ibn El-Khattab", "nameAr": "عمر بن الخطاب", "lat": 30.1405, "lng": 31.3940, "lineIds": ["L3"], "isTransfer": false },
  { "id": "L3-qobaa", "nameEn": "Qobaa", "nameAr": "قباء", "lat": 30.1350, "lng": 31.3830, "lineIds": ["L3"], "isTransfer": false },
  { "id": "L3-hesham-barakat", "nameEn": "Hesham Barakat", "nameAr": "هشام بركات", "lat": 30.1310, "lng": 31.3720, "lineIds": ["L3"], "isTransfer": false },
  { "id": "L3-el-nozha", "nameEn": "El-Nozha", "nameAr": "النزهة", "lat": 30.1280, "lng": 31.3600, "lineIds": ["L3"], "isTransfer": false },
  { "id": "L3-nadi-el-shams", "nameEn": "Nadi El-Shams", "nameAr": "نادي الشمس", "lat": 30.1230, "lng": 31.3500, "lineIds": ["L3"], "isTransfer": false },
  { "id": "L3-alf-maskan", "nameEn": "Alf Maskan", "nameAr": "ألف مسكن", "lat": 30.1185, "lng": 31.3400, "lineIds": ["L3"], "isTransfer": false },
  { "id": "L3-heliopolis-square", "nameEn": "Heliopolis Square", "nameAr": "ميدان هليوبوليس", "lat": 30.1085, "lng": 31.3380, "lineIds": ["L3"], "isTransfer": false },
  { "id": "L3-haroun", "nameEn": "Haroun", "nameAr": "هارون", "lat": 30.1020, "lng": 31.3340, "lineIds": ["L3"], "isTransfer": false },
  { "id": "L3-al-ahram", "nameEn": "Al-Ahram", "nameAr": "الأهرام", "lat": 30.0915, "lng": 31.3260, "lineIds": ["L3"], "isTransfer": false },
  { "id": "L3-koleyet-el-banat", "nameEn": "Koleyet El-Banat", "nameAr": "كلية البنات", "lat": 30.0840, "lng": 31.3130, "lineIds": ["L3"], "isTransfer": false },
  { "id": "L3-stadium", "nameEn": "Stadium", "nameAr": "الاستاد", "lat": 30.0730, "lng": 31.3000, "lineIds": ["L3"], "isTransfer": false },
  { "id": "L3-fair-zone", "nameEn": "Fair Zone", "nameAr": "أرض المعارض", "lat": 30.0732, "lng": 31.2928, "lineIds": ["L3"], "isTransfer": false },
  { "id": "L3-abbassia", "nameEn": "Abbassia", "nameAr": "العباسية", "lat": 30.0720, "lng": 31.2830, "lineIds": ["L3"], "isTransfer": false },
  { "id": "L3-abdou-pasha", "nameEn": "Abdou Pasha", "nameAr": "عبده باشا", "lat": 30.0690, "lng": 31.2750, "lineIds": ["L3"], "isTransfer": false },
  { "id": "L3-el-geish", "nameEn": "El-Geish", "nameAr": "الجيش", "lat": 30.0640, "lng": 31.2670, "lineIds": ["L3"], "isTransfer": false },
  { "id": "L3-bab-el-shaaria", "nameEn": "Bab El-Shaaria", "nameAr": "باب الشعرية", "lat": 30.0570, "lng": 31.2540, "lineIds": ["L3"], "isTransfer": false },
  { "id": "L3-maspero", "nameEn": "Maspero", "nameAr": "ماسبيرو", "lat": 30.0560, "lng": 31.2320, "lineIds": ["L3"], "isTransfer": false },
  { "id": "L3-safaa-hegazy", "nameEn": "Safaa Hegazy", "nameAr": "صفاء حجازي", "lat": 30.0620, "lng": 31.2240, "lineIds": ["L3"], "isTransfer": false },
  { "id": "L3-kit-kat", "nameEn": "Kit Kat", "nameAr": "كيت كات", "lat": 30.0660, "lng": 31.2130, "lineIds": ["L3"], "isTransfer": false },
  { "id": "L3-sudan-st", "nameEn": "Sudan St.", "nameAr": "السودان", "lat": 30.0700, "lng": 31.2040, "lineIds": ["L3"], "isTransfer": false },
  { "id": "L3-imbaba", "nameEn": "Imbaba", "nameAr": "إمبابة", "lat": 30.0755, "lng": 31.2070, "lineIds": ["L3"], "isTransfer": false },
  { "id": "L3-el-bohy", "nameEn": "El-Bohy", "nameAr": "البوهي", "lat": 30.0820, "lng": 31.2100, "lineIds": ["L3"], "isTransfer": false },
  { "id": "L3-el-kawmeya", "nameEn": "El-Kawmeya", "nameAr": "القومية", "lat": 30.0890, "lng": 31.2085, "lineIds": ["L3"], "isTransfer": false },
  { "id": "L3-ring-road", "nameEn": "Ring Road", "nameAr": "الطريق الدائري", "lat": 30.0960, "lng": 31.2060, "lineIds": ["L3"], "isTransfer": false },
  { "id": "L3-rod-el-farag-corridor", "nameEn": "Rod El-Farag Corridor", "nameAr": "محور روض الفرج", "lat": 30.1010, "lng": 31.1990, "lineIds": ["L3"], "isTransfer": false }
]
